,City,Country,Date,Lat,Lng,Max Temp,Humidity,Cloudiness,Wind Speed,Current Weather
0,Vaini,TO,2020-10-15 19:01:35,-21.2,-175.2,73.4,83,90,8.05,overcast clouds
1,Hofn,IS,2020-10-15 19:05:37,64.25,-15.21,45.03,78,0,5.41,clear sky
2,Matara,LK,2020-10-15 19:02:14,5.95,80.54,79.45,84,95,11.99,moderate rain
3,Lima,PE,2020-10-15 19:05:17,-12.04,-77.03,69.8,64,20,10.29,few clouds
4,Rawson,AR,2020-10-15 19:05:37,-43.3,-65.1,77.56,19,0,17.16,clear sky
5,Winnemucca,US,2020-10-15 19:05:37,40.97,-117.74,55.4,30,1,14.99,clear sky
6,Castro,BR,2020-10-15 19:05:38,-24.79,-50.01,65.39,92,100,5.17,light rain
7,Punta Arenas,CL,2020-10-15 19:05:38,-53.15,-70.92,55.4,47,75,41.38,broken clouds
8,Guerrero Negro,MX,2020-10-15 19:05:38,27.98,-114.06,88.72,42,97,4.12,overcast clouds
9,Srandakan,ID,2020-10-15 19:05:38,-7.94,110.25,77.02,88,100,5.57,light rain
10,Pevek,RU,2020-10-15 19:05:38,69.7,170.31,34.74,86,100,13.58,overcast clouds
11,Kodinsk,RU,2020-10-15 19:05:38,58.69,99.18,28.47,94,100,10.74,overcast clouds
12,Ushuaia,AR,2020-10-15 19:02:19,-54.8,-68.3,57.2,77,40,20.8,scattered clouds
13,Kapuskasing,CA,2020-10-15 19:00:52,49.42,-82.43,39.2,86,90,20.8,light rain
14,Atuona,PF,2020-10-15 19:05:38,-9.8,-139.03,78.58,71,0,20.54,clear sky
15,Albany,US,2020-10-15 19:05:39,42.6,-73.97,73.0,45,22,12.73,few clouds
16,Bengkulu,ID,2020-10-15 19:01:50,-3.8,102.27,76.82,83,100,2.44,overcast clouds
17,Busselton,AU,2020-10-15 19:05:39,-33.65,115.33,53.01,58,100,11.03,overcast clouds
18,Norman Wells,CA,2020-10-15 19:05:39,65.28,-126.83,17.6,85,75,9.17,broken clouds
19,Hobart,AU,2020-10-15 19:05:39,-42.88,147.33,44.6,65,90,10.29,overcast clouds
20,Severnoye,RU,2020-10-15 19:05:39,56.35,78.36,31.98,97,0,4.59,clear sky
21,Qaanaaq,GL,2020-10-15 19:05:39,77.48,-69.36,27.37,85,55,5.7,broken clouds
22,Mataura,NZ,2020-10-15 19:05:39,-46.19,168.86,36.18,78,95,3.38,overcast clouds
23,Sung Noen,TH,2020-10-15 19:05:39,14.9,101.82,75.07,93,99,3.44,overcast clouds
24,Rikitea,PF,2020-10-15 19:01:44,-23.12,-134.97,73.98,77,100,19.62,overcast clouds
25,Lake Charles,US,2020-10-15 19:05:40,30.21,-93.2,84.99,62,75,13.87,broken clouds
26,Batticaloa,LK,2020-10-15 19:03:02,7.71,81.69,80.11,73,92,10.89,moderate rain
27,Bredasdorp,ZA,2020-10-15 19:05:40,-34.53,20.04,59.0,82,100,3.36,overcast clouds
28,Adoni,IN,2020-10-15 19:05:40,15.63,77.28,72.59,89,85,7.63,overcast clouds
29,Longyearbyen,SJ,2020-10-15 19:03:07,78.22,15.64,24.8,92,40,3.44,scattered clouds
30,East London,ZA,2020-10-15 19:05:40,-33.02,27.91,66.2,88,75,14.99,broken clouds
31,Sinnamary,GF,2020-10-15 19:02:56,5.38,-52.95,85.86,61,50,13.22,scattered clouds
32,Kaitangata,NZ,2020-10-15 19:05:40,-46.28,169.85,44.01,65,100,1.01,overcast clouds
33,Naberera,TZ,2020-10-15 19:05:40,-4.2,36.93,67.51,74,33,15.41,light rain
34,Faanui,PF,2020-10-15 19:02:37,-16.48,-151.75,78.69,77,100,8.3,moderate rain
35,Ouro Preto Do Oeste,BR,2020-10-15 19:05:41,-10.75,-62.22,97.02,33,44,4.59,scattered clouds
36,Saint-Philippe,RE,2020-10-15 19:05:41,-21.36,55.77,73.4,69,1,8.05,clear sky
37,Hermanus,ZA,2020-10-15 19:01:42,-34.42,19.23,57.99,86,100,1.01,overcast clouds
38,Pinotepa Nacional,MX,2020-10-15 19:05:41,16.32,-98.02,89.4,58,5,6.04,clear sky
39,Kapaa,US,2020-10-15 19:01:52,22.08,-159.32,77.0,94,90,5.82,overcast clouds
40,Sainte-Claire,CA,2020-10-15 19:05:41,46.6,-70.86,66.99,44,100,4.0,overcast clouds
41,Coihaique,CL,2020-10-15 19:05:41,-45.58,-72.07,64.4,42,40,9.17,scattered clouds
42,Aracuai,BR,2020-10-15 19:05:41,-16.85,-42.07,99.28,22,7,4.81,clear sky
43,Mackay,AU,2020-10-15 19:05:41,-21.15,149.2,62.6,77,75,9.17,broken clouds
44,Jaguariuna,BR,2020-10-15 19:01:10,-22.71,-46.99,75.0,83,90,12.75,light rain
45,Rocha,UY,2020-10-15 19:05:42,-34.48,-54.33,68.72,69,7,10.69,clear sky
46,Arrah,IN,2020-10-15 19:05:42,25.57,84.67,77.0,83,4,1.36,mist
47,Kayankulam,IN,2020-10-15 19:03:11,9.18,76.5,77.7,89,96,6.26,moderate rain
48,Lahij,YE,2020-10-15 19:05:42,13.17,44.58,82.85,49,75,3.91,broken clouds
49,Pochutla,MX,2020-10-15 19:05:42,15.74,-96.47,87.55,62,98,7.38,overcast clouds
50,Mar Del Plata,AR,2020-10-15 19:02:48,-38.0,-57.56,59.0,72,0,12.75,clear sky
51,Durres,AL,2020-10-15 19:05:42,41.32,19.44,62.6,88,90,1.12,overcast clouds
52,Hassleholm,SE,2020-10-15 19:05:42,56.16,13.77,46.0,75,64,4.36,broken clouds
53,Gaozhou,CN,2020-10-15 19:05:42,21.94,110.85,72.64,84,100,4.21,overcast clouds
54,Zyryanka,RU,2020-10-15 19:05:42,65.75,150.85,23.61,97,100,21.25,snow
55,Yarada,IN,2020-10-15 19:05:43,17.65,83.27,80.6,100,75,2.24,mist
56,Kruisfontein,ZA,2020-10-15 19:01:53,-34.0,24.73,63.0,87,34,1.99,scattered clouds
57,Vinh,VN,2020-10-15 19:05:06,18.67,105.67,75.16,94,100,8.99,heavy intensity rain
58,Bethel,US,2020-10-15 19:01:21,41.37,-73.41,70.0,60,1,13.87,clear sky
59,New Norfolk,AU,2020-10-15 19:05:43,-42.78,147.06,42.01,75,7,2.46,clear sky
60,Portland,US,2020-10-15 19:05:43,45.52,-122.68,57.99,76,40,3.36,scattered clouds
61,Marawi,PH,2020-10-15 19:05:43,8.0,124.29,73.99,91,100,4.0,light rain
62,Cravo Norte,CO,2020-10-15 19:05:43,6.3,-70.2,91.96,49,65,3.74,broken clouds
63,La Libertad,EC,2020-10-15 19:05:43,-2.23,-80.9,77.0,78,75,11.41,broken clouds
64,Saint-Denis,FR,2020-10-15 19:05:34,48.92,2.33,50.0,66,90,8.05,overcast clouds
65,Gao,ML,2020-10-15 19:05:44,16.64,1.64,96.08,14,7,7.43,clear sky
66,Numan,NG,2020-10-15 19:05:44,9.47,12.03,81.55,67,95,3.91,overcast clouds
67,Yellowknife,CA,2020-10-15 19:05:44,62.46,-114.35,27.0,73,75,23.04,light shower snow
68,Muravlenko,RU,2020-10-15 19:05:44,63.79,74.52,30.43,93,98,16.06,overcast clouds
69,San Patricio,US,2020-10-15 19:05:44,28.02,-97.52,93.99,55,75,13.87,broken clouds
70,Coquimbo,CL,2020-10-15 19:05:17,-29.95,-71.34,59.0,77,40,12.75,scattered clouds
71,Hilo,US,2020-10-15 19:05:28,19.73,-155.09,78.8,65,1,4.7,clear sky
72,Tuktoyaktuk,CA,2020-10-15 19:05:44,69.45,-133.04,19.4,85,90,10.29,light snow
73,Yenagoa,NG,2020-10-15 19:05:44,4.92,6.26,75.74,93,100,5.91,overcast clouds
74,Kilindoni,TZ,2020-10-15 19:05:44,-7.91,39.67,78.4,84,0,17.02,light rain
75,Iqaluit,CA,2020-10-15 19:05:45,63.75,-68.51,37.4,93,90,5.82,overcast clouds
76,Colesberg,ZA,2020-10-15 19:05:45,-30.72,25.1,72.21,18,0,7.52,clear sky
77,Carnarvon,AU,2020-10-15 19:05:45,-24.87,113.63,66.2,88,40,21.92,scattered clouds
78,Halifax,CA,2020-10-15 19:03:28,44.65,-63.57,63.0,59,20,9.17,few clouds
79,Port Elizabeth,ZA,2020-10-15 19:05:45,-33.92,25.57,60.8,93,3,10.29,clear sky
80,Nikolskoye,RU,2020-10-15 19:05:45,59.7,30.79,41.0,85,75,6.71,broken clouds
81,Bluff,NZ,2020-10-15 19:05:45,-46.6,168.33,47.35,51,100,22.75,overcast clouds
82,Grindavik,IS,2020-10-15 19:05:45,63.84,-22.43,48.2,81,90,8.05,overcast clouds
83,Kalbay,PH,2020-10-15 19:05:45,5.72,125.5,78.28,72,100,3.94,overcast clouds
84,Husavik,IS,2020-10-15 19:05:45,66.04,-17.34,35.6,80,0,2.24,clear sky
85,Khrebtovaya,RU,2020-10-15 19:05:46,56.7,104.25,37.15,98,100,14.65,light rain
86,Esmeraldas,BR,2020-10-15 19:03:37,-19.76,-44.31,77.0,61,75,6.93,thunderstorm
87,Kavieng,PG,2020-10-15 19:05:46,-2.57,150.8,82.0,75,32,9.28,scattered clouds
88,Progreso,MX,2020-10-15 19:05:46,21.28,-89.67,93.99,52,75,9.1,broken clouds
89,Yulara,AU,2020-10-15 19:05:46,-25.24,130.99,64.4,27,0,5.32,clear sky
90,La Ronge,CA,2020-10-15 19:05:46,55.1,-105.28,24.8,53,90,21.92,light snow
91,Taltal,CL,2020-10-15 19:00:47,-25.4,-70.48,63.66,62,42,6.58,scattered clouds
92,Caravelas,BR,2020-10-15 19:05:46,-17.71,-39.25,80.4,73,56,11.18,broken clouds
93,Arraial Do Cabo,BR,2020-10-15 19:05:47,-22.97,-42.03,77.0,83,20,13.87,few clouds
94,Vardo,NO,2020-10-15 19:03:07,70.37,31.11,39.2,86,40,18.34,scattered clouds
95,Ilulissat,GL,2020-10-15 19:02:16,69.22,-51.1,34.41,83,100,5.21,overcast clouds
96,Nouadhibou,MR,2020-10-15 19:05:47,20.93,-17.03,78.8,65,0,16.11,clear sky
97,Barrow,US,2020-10-15 19:05:47,71.29,-156.79,28.4,63,90,4.34,overcast clouds
98,San Quintin,MX,2020-10-15 19:05:47,30.48,-115.95,84.76,32,0,7.85,clear sky
99,Parrita,CR,2020-10-15 19:05:47,9.52,-84.32,78.8,65,20,8.05,few clouds
100,Jamestown,US,2020-10-15 19:05:47,42.1,-79.24,57.2,71,90,20.8,overcast clouds
101,Ribeira Grande,PT,2020-10-15 19:05:47,38.52,-28.7,71.6,78,20,2.24,few clouds
102,Juegang,CN,2020-10-15 19:05:47,32.32,121.19,60.96,76,100,0.92,light rain
103,Khatanga,RU,2020-10-15 19:05:47,71.97,102.5,12.9,96,100,6.26,light snow
104,Tibu,CO,2020-10-15 19:05:48,8.64,-72.74,94.12,43,0,3.76,clear sky
105,Tasiilaq,GL,2020-10-15 19:05:48,65.61,-37.64,37.29,92,100,8.66,light rain
106,Cape Town,ZA,2020-10-15 19:02:32,-33.93,18.42,61.0,77,20,17.22,few clouds
107,Itarema,BR,2020-10-15 19:05:48,-2.92,-39.92,83.88,66,93,19.28,overcast clouds
108,Butaritari,KI,2020-10-15 19:05:48,3.07,172.79,81.77,75,100,13.04,overcast clouds
109,Sao Gabriel Da Cachoeira,BR,2020-10-15 19:05:48,-0.13,-67.09,90.45,57,99,0.34,overcast clouds
110,Mormugao,IN,2020-10-15 19:05:48,15.4,73.8,78.8,94,90,9.17,drizzle
111,Orumiyeh,IR,2020-10-15 19:05:48,37.55,45.08,51.8,50,91,9.17,overcast clouds
112,Xining,CN,2020-10-15 19:05:48,36.62,101.77,36.34,73,97,1.3,overcast clouds
113,Namatanai,PG,2020-10-15 19:03:12,-3.67,152.43,79.3,77,83,5.59,broken clouds
114,Rio Gallegos,AR,2020-10-15 19:02:09,-51.62,-69.22,68.0,19,40,34.45,scattered clouds
115,Kieta,PG,2020-10-15 19:01:35,-6.22,155.63,78.13,77,58,0.54,broken clouds
116,Svetlogorsk,BY,2020-10-15 19:05:49,52.63,29.73,50.74,78,84,4.47,broken clouds
117,Geraldton,AU,2020-10-15 19:05:49,-28.77,114.6,57.2,82,0,9.17,clear sky
118,Ati,TD,2020-10-15 19:05:49,13.22,18.34,93.61,25,0,2.73,clear sky
119,Traralgon,AU,2020-10-15 19:05:49,-38.18,146.53,46.99,89,10,1.54,clear sky
120,Arlit,NE,2020-10-15 19:05:49,18.74,7.39,97.09,10,0,8.81,clear sky
121,Koslan,RU,2020-10-15 19:05:49,63.46,48.9,31.05,95,100,3.33,overcast clouds
122,Los Llanos De Aridane,ES,2020-10-15 19:05:49,28.66,-17.92,75.2,73,90,10.29,overcast clouds
123,Kaduna,NG,2020-10-15 19:05:50,10.52,7.44,79.12,60,37,3.4,scattered clouds
124,Cherskiy,RU,2020-10-15 19:01:50,68.75,161.3,33.58,90,100,7.61,overcast clouds
125,Edd,ER,2020-10-15 19:05:50,13.93,41.69,84.7,63,0,0.65,clear sky
126,Tongzi,CN,2020-10-15 19:05:50,28.78,105.09,56.43,91,100,3.29,overcast clouds
127,Faya,SA,2020-10-15 19:05:50,18.39,42.45,68.0,10,0,5.82,clear sky
128,Alyangula,AU,2020-10-15 19:05:50,-13.85,136.42,73.4,100,4,4.7,clear sky
129,Upernavik,GL,2020-10-15 19:05:50,72.79,-56.15,28.6,84,6,6.55,clear sky
130,Ancud,CL,2020-10-15 19:05:50,-41.87,-73.82,64.4,31,0,6.93,clear sky
131,Los Algarrobos,PA,2020-10-15 19:05:50,8.5,-82.43,87.8,62,40,4.7,scattered clouds
132,Heinola,FI,2020-10-15 19:05:50,61.21,26.04,39.2,80,40,8.05,scattered clouds
133,Sao Joao Da Barra,BR,2020-10-15 19:05:51,-21.64,-41.05,80.6,65,75,23.04,moderate rain
134,Bedesa,ET,2020-10-15 19:05:51,8.9,40.78,65.01,47,30,2.51,scattered clouds
135,Touros,BR,2020-10-15 19:05:51,-5.2,-35.46,86.0,62,40,16.11,scattered clouds
136,Mahebourg,MU,2020-10-15 19:05:51,-20.41,57.7,73.4,83,75,9.17,broken clouds
137,Pierre,US,2020-10-15 19:01:45,44.37,-100.35,53.01,39,90,18.34,overcast clouds
138,Matagami,CA,2020-10-15 19:05:51,49.75,-77.63,48.2,93,90,9.17,moderate rain
139,Cambados,ES,2020-10-15 19:05:51,42.51,-8.81,59.0,76,0,6.93,clear sky
140,Sergeyevka,KZ,2020-10-15 19:05:51,53.88,67.42,47.26,53,72,5.46,broken clouds
141,Flinders,AU,2020-10-15 19:05:51,-34.58,150.86,63.0,84,100,9.84,light rain
142,Ostrovnoy,RU,2020-10-15 19:05:52,68.05,39.51,37.85,79,100,10.67,overcast clouds
143,Joao Camara,BR,2020-10-15 19:05:52,-5.54,-35.82,86.0,62,40,16.11,scattered clouds
144,Chizhou,CN,2020-10-15 19:05:52,30.66,117.48,58.42,94,100,7.7,light rain
145,Katsuura,JP,2020-10-15 19:05:52,35.13,140.3,60.01,65,100,10.0,overcast clouds
146,Lagoa,PT,2020-10-15 19:05:52,39.05,-27.98,69.37,85,90,8.95,overcast clouds
147,Provideniya,RU,2020-10-15 19:05:52,64.38,-173.3,38.32,93,100,12.95,light rain
148,Cartagena,CO,2020-10-15 19:05:52,10.4,-75.51,87.8,74,40,10.29,scattered clouds
149,Saskylakh,RU,2020-10-15 19:05:53,71.92,114.08,19.99,96,100,16.49,light snow
150,Chokurdakh,RU,2020-10-15 19:05:53,70.63,147.92,28.47,99,100,7.67,overcast clouds
151,Victor Harbor,AU,2020-10-15 19:05:53,-35.57,138.62,55.99,85,100,14.88,overcast clouds
152,Hithadhoo,MV,2020-10-15 19:01:52,-0.6,73.08,82.47,75,88,17.83,overcast clouds
153,Muroto,JP,2020-10-15 19:05:14,33.28,134.15,66.58,60,5,14.45,clear sky
154,Sitka,US,2020-10-15 19:04:03,57.05,-135.33,46.4,75,90,6.93,overcast clouds
155,Madimba,TZ,2020-10-15 19:05:53,-10.4,40.33,75.9,84,27,8.93,scattered clouds
156,Codrington,AU,2020-10-15 19:05:53,-38.27,141.97,40.73,86,1,10.09,clear sky
157,Aykhal,RU,2020-10-15 19:05:53,66.0,111.5,21.2,100,90,11.18,light snow
158,Puerto Ayora,EC,2020-10-15 19:05:53,-0.74,-90.35,78.8,74,75,14.99,broken clouds
159,Kano,NG,2020-10-15 19:05:54,12.0,8.52,78.8,94,20,2.24,few clouds
160,Aranos,NA,2020-10-15 19:05:54,-24.13,19.12,78.13,17,0,10.18,clear sky
161,Bambous Virieux,MU,2020-10-15 19:05:54,-20.34,57.76,75.0,83,75,9.17,broken clouds
162,Menongue,AO,2020-10-15 19:05:54,-14.66,17.69,68.88,65,77,6.06,broken clouds
163,Tautira,PF,2020-10-15 19:01:38,-17.73,-149.15,82.4,69,40,9.17,shower rain
164,Avarua,CK,2020-10-15 19:05:54,-21.21,-159.78,73.4,56,100,9.17,overcast clouds
165,Saint George,US,2020-10-15 19:02:53,37.1,-113.58,79.0,24,1,3.36,clear sky
166,Kulevcha,UA,2020-10-15 19:05:54,46.03,29.94,63.72,83,99,8.37,overcast clouds
167,Tuatapere,NZ,2020-10-15 19:05:55,-46.13,167.68,43.95,61,100,8.37,overcast clouds
168,Port Alfred,ZA,2020-10-15 19:05:55,-33.59,26.89,64.38,84,27,9.48,scattered clouds
169,Grand Gaube,MU,2020-10-15 19:05:55,-20.01,57.66,75.0,73,0,5.01,clear sky
170,Kaputa,ZM,2020-10-15 19:05:55,-8.47,29.66,78.3,60,42,8.55,scattered clouds
171,Pringsewu,ID,2020-10-15 19:05:55,-5.36,104.97,75.29,92,93,5.44,overcast clouds
172,Atar,MR,2020-10-15 19:05:55,20.52,-13.05,100.4,21,1,6.93,clear sky
173,Stephenville,US,2020-10-15 19:05:29,32.22,-98.2,73.4,40,90,18.34,overcast clouds
174,Rio Grande,BR,2020-10-15 19:05:55,-32.03,-52.1,65.86,80,0,10.96,clear sky
175,Najran,SA,2020-10-15 19:05:55,17.49,44.13,73.4,17,0,5.82,clear sky
176,Pangoa,PE,2020-10-15 19:05:56,-12.12,-73.0,84.09,53,8,4.43,light rain
177,Vestmannaeyjar,IS,2020-10-15 19:05:56,63.44,-20.27,48.2,87,75,18.34,broken clouds
178,Olinda,BR,2020-10-15 19:05:56,-8.01,-34.86,84.2,66,40,9.17,scattered clouds
179,Karratha,AU,2020-10-15 19:04:49,-20.74,116.85,74.82,38,0,9.24,clear sky
180,Ajdabiya,LY,2020-10-15 19:05:56,30.76,20.23,82.71,28,100,14.38,overcast clouds
181,Moose Factory,CA,2020-10-15 19:03:17,51.26,-80.61,42.8,100,90,11.41,light rain
182,Aklavik,CA,2020-10-15 19:02:06,68.22,-135.01,21.2,79,75,2.24,broken clouds
183,Thompson,CA,2020-10-15 19:05:56,55.74,-97.86,26.6,86,90,13.87,light shower snow
184,Humboldt,US,2020-10-15 19:05:56,40.67,-123.92,64.99,67,20,9.17,few clouds
185,Donghai,CN,2020-10-15 19:05:56,22.95,115.64,70.83,82,96,8.12,overcast clouds
186,Kirakira,SB,2020-10-15 19:05:57,-10.45,161.92,77.45,83,41,5.46,scattered clouds
187,Tierralta,CO,2020-10-15 19:05:57,8.17,-76.06,85.42,73,24,5.66,light rain
188,Souillac,MU,2020-10-15 19:02:17,-20.52,57.52,73.4,83,75,9.17,broken clouds
189,Batamshinskiy,KZ,2020-10-15 19:05:57,50.56,58.27,46.4,45,90,11.18,overcast clouds
190,Meulaboh,ID,2020-10-15 19:03:01,4.14,96.13,76.91,86,99,4.16,overcast clouds
191,Valparaiso,CL,2020-10-15 19:02:07,-33.04,-71.63,62.6,87,75,8.05,fog
192,Marzuq,YE,2020-10-15 19:05:57,14.4,46.47,73.38,19,0,5.73,clear sky
193,Dikson,RU,2020-10-15 19:05:57,73.51,80.55,30.54,94,100,21.63,overcast clouds
194,Lithakia,GR,2020-10-15 19:05:57,37.72,20.83,71.6,73,20,12.75,few clouds
195,Torbay,CA,2020-10-15 19:03:19,47.67,-52.73,60.01,93,90,17.22,light intensity drizzle
196,Quang Ngai,VN,2020-10-15 19:05:57,15.12,108.8,77.07,92,100,2.64,light rain
197,Veraval,IN,2020-10-15 19:05:58,20.9,70.37,84.97,70,100,5.39,light rain
198,Anadyr,RU,2020-10-15 19:05:58,64.75,177.48,41.0,93,40,33.55,scattered clouds
199,Mount Gambier,AU,2020-10-15 19:05:41,-37.83,140.77,41.0,86,0,9.17,clear sky
200,Chapais,CA,2020-10-15 19:05:58,49.78,-74.85,46.4,93,90,9.17,overcast clouds
201,Belmonte,BR,2020-10-15 19:05:58,-15.86,-38.88,82.4,58,20,20.8,few clouds
202,Victoria,HK,2020-10-15 19:05:58,22.29,114.16,79.0,77,100,4.0,overcast clouds
203,Kahului,US,2020-10-15 19:05:58,20.89,-156.47,80.6,57,1,3.36,clear sky
204,Bac Lieu,VN,2020-10-15 19:05:58,9.29,105.72,78.53,86,100,12.84,overcast clouds
205,Binga,ZW,2020-10-15 19:05:58,-17.62,27.34,79.11,52,0,4.94,clear sky
206,Clyde River,CA,2020-10-15 19:05:58,70.47,-68.59,33.8,100,90,16.11,light snow
207,Marathon,US,2020-10-15 19:05:58,44.9,-89.77,45.0,41,75,19.46,broken clouds
208,Lufilufi,WS,2020-10-15 19:05:59,-13.87,-171.6,77.0,94,75,8.05,broken clouds
209,Sao Filipe,CV,2020-10-15 19:05:59,14.9,-24.5,81.75,77,76,12.03,light rain
210,Puerto El Triunfo,SV,2020-10-15 19:05:59,13.28,-88.55,89.6,70,20,8.32,few clouds
211,Whitehorse,CA,2020-10-15 19:04:49,60.72,-135.05,26.6,86,20,2.24,few clouds
212,Ponta Do Sol,PT,2020-10-15 19:05:59,32.67,-17.1,69.8,77,40,5.82,scattered clouds
213,Bulancak,TR,2020-10-15 19:05:59,40.94,38.23,69.8,100,75,3.36,broken clouds
214,Tiksi,RU,2020-10-15 19:02:47,71.69,128.87,19.51,98,96,1.41,overcast clouds
215,Nanortalik,GL,2020-10-15 19:01:39,60.14,-45.24,39.22,77,100,9.95,overcast clouds
216,Udachnyy,RU,2020-10-15 19:05:59,66.42,112.4,21.2,100,90,11.18,light snow
217,Gizo,SB,2020-10-15 19:06:00,-8.1,156.84,81.32,73,65,4.94,broken clouds
218,Kalmunai,LK,2020-10-15 19:01:25,7.42,81.82,80.17,71,76,5.12,broken clouds
219,Adrar,MR,2020-10-15 19:02:12,20.5,-10.07,96.08,15,67,8.3,broken clouds
220,Hay River,CA,2020-10-15 19:06:00,60.82,-115.8,24.8,68,75,25.28,broken clouds
221,Canutama,BR,2020-10-15 19:06:00,-6.53,-64.38,94.6,42,87,1.66,heavy intensity rain
222,Ternate,ID,2020-10-15 19:06:00,0.8,127.4,77.92,82,100,3.13,light rain
223,Uyemskiy,RU,2020-10-15 19:06:00,64.47,40.85,33.8,100,90,1.57,light intensity shower rain
224,Yar-Sale,RU,2020-10-15 19:06:00,66.83,70.83,31.55,94,94,10.13,overcast clouds
225,Tabuk,PH,2020-10-15 19:06:01,17.42,121.44,73.6,88,20,2.59,heavy intensity rain
226,Waingapu,ID,2020-10-15 19:02:11,-9.66,120.26,78.06,79,54,0.78,broken clouds
227,Wanaka,NZ,2020-10-15 19:06:01,-44.7,169.15,38.98,69,100,8.93,overcast clouds
228,Deputatskiy,RU,2020-10-15 19:06:01,69.3,139.9,11.32,96,100,3.98,overcast clouds
229,Mittweida,DE,2020-10-15 19:06:01,50.98,12.98,50.0,96,100,8.95,overcast clouds
230,Quatre Cocos,MU,2020-10-15 19:06:01,-20.21,57.76,75.0,83,75,9.17,broken clouds
231,Mehamn,NO,2020-10-15 19:02:58,71.04,27.85,37.85,90,100,20.69,overcast clouds
232,Odessa,UA,2020-10-15 19:04:04,46.48,30.73,66.2,88,20,6.71,few clouds
233,Half Moon Bay,US,2020-10-15 19:06:01,37.46,-122.43,87.8,14,1,5.82,clear sky
234,Ust-Maya,RU,2020-10-15 19:06:02,60.42,134.53,13.66,95,0,2.17,clear sky
235,Acarau,BR,2020-10-15 19:06:02,-2.89,-40.12,84.76,63,85,20.65,overcast clouds
236,Namibe,AO,2020-10-15 19:06:02,-15.2,12.15,68.88,79,99,4.83,light rain
237,Brae,GB,2020-10-15 19:06:02,60.4,-1.35,48.2,87,75,10.29,light intensity drizzle
238,Kysyl-Syr,RU,2020-10-15 19:06:02,63.9,122.76,25.05,98,100,5.39,light snow
239,Morrope,PE,2020-10-15 19:06:02,-6.54,-80.01,86.0,57,11,16.11,few clouds
240,Sisimiut,GL,2020-10-15 19:06:02,66.94,-53.67,37.26,78,100,8.88,overcast clouds
241,Manggar,ID,2020-10-15 19:06:02,-2.88,108.27,80.24,78,94,3.4,overcast clouds
242,Saint-Marc-Des-Carrieres,CA,2020-10-15 19:06:02,46.68,-72.05,70.0,24,100,1.01,overcast clouds
243,Whitecourt,CA,2020-10-15 19:06:03,54.15,-115.69,35.6,69,75,16.11,broken clouds
244,Mount Isa,AU,2020-10-15 19:06:03,-20.73,139.5,77.0,31,0,8.05,clear sky
245,Sumbe,AO,2020-10-15 19:06:03,-11.21,13.84,74.48,86,100,7.02,overcast clouds
246,Kununurra,AU,2020-10-15 19:02:48,-15.77,128.73,75.2,88,0,7.36,clear sky
247,Rodrigues Alves,BR,2020-10-15 19:06:03,-7.74,-72.65,86.02,57,94,3.94,overcast clouds
248,Stornoway,GB,2020-10-15 19:06:03,58.21,-6.39,48.2,70,53,4.7,broken clouds
249,Jaunjelgava,LV,2020-10-15 19:06:03,56.62,25.08,42.01,96,74,5.21,broken clouds
250,Ulladulla,AU,2020-10-15 19:06:03,-35.35,150.47,62.6,82,90,13.87,light rain
251,Pimentel,PE,2020-10-15 19:06:03,-6.84,-79.93,75.2,57,43,16.11,scattered clouds
252,Tecoanapa,MX,2020-10-15 19:06:04,16.52,-98.75,86.25,69,98,9.89,overcast clouds
253,Te Anau,NZ,2020-10-15 19:06:04,-45.42,167.72,40.57,79,100,9.95,light rain
254,Riyadh,SA,2020-10-15 19:02:11,24.69,46.72,77.0,23,0,2.24,clear sky
255,Zhezkazgan,KZ,2020-10-15 19:06:04,47.8,67.71,52.3,44,15,5.17,few clouds
256,Mogadishu,SO,2020-10-15 19:04:11,2.04,45.34,79.03,84,0,11.97,clear sky
257,Mujiayingzi,CN,2020-10-15 19:06:04,42.12,118.78,40.55,63,0,8.99,clear sky
258,Changji,CN,2020-10-15 19:06:04,44.02,87.32,46.4,52,0,2.24,clear sky
259,Bogovarovo,RU,2020-10-15 19:06:04,58.98,47.02,49.01,87,69,10.56,broken clouds
260,Garowe,SO,2020-10-15 19:06:05,8.41,48.48,80.31,59,0,19.95,clear sky
261,Coihueco,CL,2020-10-15 19:06:05,-36.62,-71.83,78.8,44,0,8.05,clear sky
262,Kijang,KR,2020-10-15 19:06:05,35.24,129.21,57.2,71,93,6.93,overcast clouds
263,Vao,NC,2020-10-15 19:06:05,-22.67,167.48,71.4,80,100,15.93,overcast clouds
264,Kiunga,PG,2020-10-15 19:06:05,-6.12,141.29,73.02,98,100,1.57,overcast clouds
265,Arua,UG,2020-10-15 19:06:05,3.02,30.91,65.61,88,100,3.33,overcast clouds
266,Merauke,ID,2020-10-15 19:06:05,-8.47,140.33,76.96,81,100,13.13,overcast clouds
267,Thinadhoo,MV,2020-10-15 19:06:05,0.53,72.93,83.46,74,0,19.08,clear sky
268,Lithgow,AU,2020-10-15 19:06:06,-33.48,150.15,64.99,82,100,1.01,overcast clouds
269,Paamiut,GL,2020-10-15 19:03:07,61.99,-49.67,41.2,71,100,13.22,overcast clouds
270,Nurota,UZ,2020-10-15 19:06:06,40.56,65.69,51.8,32,0,6.93,clear sky
271,Isla Vista,US,2020-10-15 19:06:06,34.41,-119.86,93.0,36,1,4.7,clear sky
272,Poronaysk,RU,2020-10-15 19:06:06,49.22,143.12,35.29,81,13,11.5,few clouds
273,Beringovskiy,RU,2020-10-15 19:06:06,63.05,179.32,41.7,93,100,20.96,light rain
274,Esperance,AU,2020-10-15 19:06:06,-33.87,121.9,55.4,100,90,6.93,overcast clouds
275,Meadow Lake,US,2020-10-15 19:06:06,34.8,-106.54,73.4,13,1,10.29,clear sky
276,Dunedin,NZ,2020-10-15 19:05:14,-45.87,170.5,44.01,65,100,10.0,overcast clouds
277,Camabatela,AO,2020-10-15 19:06:07,-8.19,15.38,65.98,93,98,1.59,moderate rain
278,Auki,SB,2020-10-15 19:06:07,-8.77,160.7,77.49,84,0,4.21,clear sky
279,Houma,US,2020-10-15 19:06:07,29.6,-90.72,87.01,58,75,9.17,broken clouds
280,Lukovetskiy,RU,2020-10-15 19:06:07,64.3,41.92,33.8,100,90,2.48,light intensity shower rain
281,Kavaratti,IN,2020-10-15 19:06:07,10.57,72.64,82.31,76,56,18.01,light rain
282,Kirsanov,RU,2020-10-15 19:06:07,52.65,42.72,53.02,52,0,7.65,clear sky
283,Klaksvik,FO,2020-10-15 19:06:07,62.23,-6.59,44.6,81,64,1.12,broken clouds
284,Semey,KZ,2020-10-15 19:06:07,50.41,80.23,50.32,48,100,8.66,overcast clouds
285,Port Shepstone,ZA,2020-10-15 19:06:07,-30.74,30.45,72.36,49,0,17.36,clear sky
286,Raton,US,2020-10-15 19:06:07,36.9,-104.44,55.0,27,1,18.34,clear sky
287,Qasigiannguit,GL,2020-10-15 19:06:08,68.82,-51.19,34.93,83,100,3.44,overcast clouds
288,Tomatlan,MX,2020-10-15 19:06:08,19.93,-105.25,94.23,48,0,3.62,clear sky
289,Nuuk,GL,2020-10-15 19:06:08,64.18,-51.72,41.0,75,75,2.24,broken clouds
290,Zhuanghe,CN,2020-10-15 19:06:08,39.7,122.99,48.0,80,76,4.29,broken clouds
291,Tam Ky,VN,2020-10-15 19:06:08,15.57,108.48,77.0,100,75,3.36,moderate rain
292,Zubtsov,RU,2020-10-15 19:06:08,56.18,34.59,46.74,82,100,7.63,light rain
293,Togur,RU,2020-10-15 19:06:08,58.36,82.83,30.45,95,0,5.08,clear sky
294,Union City,US,2020-10-15 19:06:08,37.6,-122.02,87.01,20,1,9.17,clear sky
295,Nagaur,IN,2020-10-15 19:06:08,27.2,73.73,80.47,17,0,9.71,clear sky
296,Bathsheba,BB,2020-10-15 19:06:09,13.22,-59.52,86.0,74,40,14.99,scattered clouds
297,Villagran,MX,2020-10-15 19:06:09,20.52,-100.98,82.0,43,0,5.91,clear sky
298,Korla,CN,2020-10-15 19:06:09,41.76,86.15,50.0,68,0,5.01,clear sky
299,Anito,PH,2020-10-15 19:06:09,12.45,125.29,77.13,90,98,2.62,overcast clouds
300,Piacabucu,BR,2020-10-15 19:06:09,-10.41,-36.43,80.1,67,0,11.59,clear sky
301,Kudahuvadhoo,MV,2020-10-15 19:06:09,2.67,72.89,82.33,80,22,20.4,few clouds
302,Tura,IN,2020-10-15 19:06:09,25.52,90.22,73.31,94,0,1.81,clear sky
303,Zhicheng,CN,2020-10-15 19:06:09,30.3,111.5,57.0,84,100,3.29,light rain
304,Lebu,CL,2020-10-15 19:06:10,-37.62,-73.65,57.22,61,31,13.11,scattered clouds
305,Salalah,OM,2020-10-15 19:01:58,17.02,54.09,78.8,94,20,2.24,few clouds
306,Bilibino,RU,2020-10-15 19:03:22,68.05,166.44,26.98,92,99,5.35,overcast clouds
307,Isangel,VU,2020-10-15 19:06:10,-19.55,169.27,74.16,82,100,10.18,overcast clouds
308,Kodiak,US,2020-10-15 19:06:10,57.79,-152.41,42.8,75,1,11.41,clear sky
309,Wau,SS,2020-10-15 19:06:10,7.7,28.0,76.21,78,60,0.74,light rain
310,Smidovich,RU,2020-10-15 19:06:10,48.6,133.82,30.83,88,0,8.05,clear sky
311,Impfondo,CG,2020-10-15 19:06:10,1.64,18.07,69.13,96,80,1.83,broken clouds
312,San Joaquin,US,2020-10-15 19:06:10,37.93,-121.3,81.0,27,1,3.36,clear sky
313,Mogoytuy,RU,2020-10-15 19:06:10,51.28,114.92,28.31,94,0,9.1,clear sky
314,Dingzhou,CN,2020-10-15 19:06:10,38.51,115.0,51.8,93,3,4.47,mist
315,Laguna,US,2020-10-15 19:06:11,38.42,-121.42,84.99,19,1,11.41,clear sky
316,Quesnel,CA,2020-10-15 19:06:11,53.0,-122.5,35.6,93,40,2.24,scattered clouds
317,Broome,US,2020-10-15 19:06:11,42.25,-75.83,77.0,35,1,16.11,haze
318,Cabo San Lucas,MX,2020-10-15 19:06:11,22.89,-109.91,90.0,58,5,8.05,clear sky
319,Airai,TL,2020-10-15 19:06:11,-8.93,125.41,60.64,80,98,1.23,overcast clouds
320,Sotnikovskoye,RU,2020-10-15 19:06:11,45.0,43.78,63.45,59,0,1.43,clear sky
321,Nkowakowa,ZA,2020-10-15 19:06:11,-23.89,30.29,71.6,43,0,8.05,clear sky
322,Berlevag,NO,2020-10-15 19:06:11,70.86,29.09,37.4,86,75,13.87,broken clouds
323,Looc,PH,2020-10-15 19:06:12,12.26,121.99,77.79,90,100,10.0,overcast clouds
324,Luderitz,NA,2020-10-15 19:06:12,-26.65,15.16,71.42,38,0,14.45,clear sky
325,Fairbanks,US,2020-10-15 19:04:58,64.84,-147.72,21.2,73,90,1.74,light snow
326,Tchibanga,GA,2020-10-15 19:06:12,-2.85,11.03,70.66,90,96,3.44,overcast clouds
327,Viedma,AR,2020-10-15 19:06:12,-40.81,-63.0,79.0,28,0,7.0,clear sky
328,Poum,NC,2020-10-15 19:06:13,-20.23,164.02,75.02,78,100,13.6,moderate rain
329,Hambantota,LK,2020-10-15 19:06:13,6.12,81.12,78.8,94,75,3.36,thunderstorm
330,Churapcha,RU,2020-10-15 19:06:13,62.0,132.43,14.63,97,79,2.57,broken clouds
331,Georgetown,MY,2020-10-15 19:06:13,5.41,100.34,82.4,83,20,4.7,few clouds
332,Langsa,ID,2020-10-15 19:06:13,4.47,97.97,75.92,92,98,1.92,overcast clouds
333,San Matias,BO,2020-10-15 19:06:14,-16.37,-58.4,92.41,45,94,9.13,moderate rain
334,Saposoa,PE,2020-10-15 19:06:14,-6.93,-76.77,82.4,74,75,3.36,broken clouds
335,Hasaki,JP,2020-10-15 19:01:44,35.73,140.83,57.2,76,75,13.87,broken clouds
336,Forbes,AU,2020-10-15 19:06:14,-33.38,148.02,61.16,52,100,5.46,moderate rain
337,Fortuna,US,2020-10-15 19:06:14,40.6,-124.16,64.99,67,20,9.17,few clouds
338,Green River,US,2020-10-15 19:06:14,41.53,-109.47,42.8,30,1,20.8,clear sky
339,Khash,IR,2020-10-15 19:06:14,28.22,61.22,49.24,40,0,6.4,clear sky
340,Hami,CN,2020-10-15 19:06:14,42.8,93.45,41.27,61,0,0.11,clear sky
341,Lompoc,US,2020-10-15 19:06:14,34.64,-120.46,90.0,25,1,6.08,clear sky
342,Waitati,NZ,2020-10-15 19:04:12,-45.75,170.57,44.01,66,72,45.99,broken clouds
343,Severo-Kurilsk,RU,2020-10-15 19:01:47,50.68,156.12,42.66,73,72,28.12,light rain
344,Isla Del Bosque,MX,2020-10-15 19:06:15,22.73,-105.85,91.4,59,5,3.36,clear sky
345,Zelenoborskiy,RU,2020-10-15 19:06:15,66.84,32.36,35.01,89,65,6.11,broken clouds
346,Beppu,JP,2020-10-15 19:06:15,33.27,131.49,59.0,80,76,1.99,broken clouds
347,Imperia,IT,2020-10-15 19:06:15,43.97,7.78,59.0,93,75,3.44,broken clouds
348,Ullapool,GB,2020-10-15 19:06:16,57.9,-5.16,46.0,92,14,3.91,few clouds
349,Tallahassee,US,2020-10-15 19:06:16,30.44,-84.28,86.0,51,40,6.93,scattered clouds
350,Mehran,IR,2020-10-15 19:06:16,33.12,46.16,60.8,21,0,4.7,clear sky
351,Severodvinsk,RU,2020-10-15 19:06:16,64.56,39.83,33.8,100,90,5.64,light intensity shower rain
352,Altamira,BR,2020-10-15 19:03:25,-3.2,-52.21,95.85,37,22,6.85,few clouds
353,Nanakuli,US,2020-10-15 19:06:16,21.39,-158.15,80.6,74,1,3.36,clear sky
354,Port Hardy,CA,2020-10-15 19:06:17,50.7,-127.42,48.2,93,90,6.93,light rain
355,Upington,ZA,2020-10-15 19:06:17,-28.45,21.26,86.0,9,0,3.36,clear sky
356,Zeya,RU,2020-10-15 19:06:17,53.75,127.27,23.88,93,0,1.28,clear sky
357,Hutchinson,US,2020-10-15 19:06:17,38.06,-97.93,57.2,41,20,10.29,few clouds
358,Bara,NG,2020-10-15 19:06:17,10.37,10.73,78.71,67,81,4.97,broken clouds
359,Buraydah,SA,2020-10-15 19:03:16,26.33,43.98,82.4,23,0,3.36,clear sky
360,Umm Lajj,SA,2020-10-15 19:06:17,25.02,37.27,83.95,54,0,5.1,clear sky
361,Aripuana,BR,2020-10-15 19:05:08,-9.17,-60.63,94.05,38,82,2.93,broken clouds
362,Timmins,CA,2020-10-15 19:04:05,48.47,-81.33,39.2,93,90,16.11,light rain
363,Izhma,RU,2020-10-15 19:06:18,65.01,53.91,31.6,92,100,3.58,overcast clouds
364,Saldanha,ZA,2020-10-15 19:06:18,-33.01,17.94,59.0,72,0,12.75,clear sky
365,Caranavi,BO,2020-10-15 19:06:18,-15.82,-67.55,75.18,80,99,0.49,moderate rain
366,Minab,IR,2020-10-15 19:06:18,27.15,57.08,69.8,46,0,6.93,clear sky
367,Luzhou,CN,2020-10-15 19:06:18,28.87,105.44,57.04,91,100,4.18,light rain
368,Yinchuan,CN,2020-10-15 19:06:18,38.47,106.27,48.04,45,0,6.4,clear sky
369,Santana Do Livramento,BR,2020-10-15 19:04:10,-30.89,-55.53,74.39,63,0,11.72,clear sky
370,North Bend,US,2020-10-15 19:06:17,43.41,-124.22,62.6,51,1,11.41,clear sky
371,Huilong,CN,2020-10-15 19:06:19,31.81,121.66,63.0,88,100,5.28,light rain
372,Egvekinot,RU,2020-10-15 19:03:23,66.32,-179.17,34.05,100,100,15.93,moderate rain
373,Sorland,NO,2020-10-15 19:06:19,67.67,12.69,44.6,81,75,17.22,broken clouds
374,Talnakh,RU,2020-10-15 19:06:19,69.49,88.4,24.8,92,75,13.42,broken clouds
375,Lixourion,GR,2020-10-15 19:06:19,38.2,20.43,71.6,94,20,13.87,few clouds
376,Nioro,GM,2020-10-15 19:06:19,13.35,-15.75,82.53,78,26,6.08,scattered clouds
377,Slonim,BY,2020-10-15 19:06:20,53.09,25.32,46.08,88,86,4.41,overcast clouds
378,Qaqortoq,GL,2020-10-15 19:06:20,60.72,-46.03,39.2,55,75,3.36,broken clouds
379,Bogorodskoye,RU,2020-10-15 19:06:20,56.55,37.88,49.28,75,100,14.94,light rain
380,Karakol,KG,2020-10-15 19:06:20,42.49,78.39,42.87,57,0,4.07,clear sky
381,Vaitape,PF,2020-10-15 19:06:20,-16.52,-151.75,79.56,76,100,8.19,moderate rain
382,Cidreira,BR,2020-10-15 19:02:15,-30.18,-50.21,67.66,75,88,8.12,overcast clouds
383,Macae,BR,2020-10-15 19:06:20,-22.37,-41.79,77.0,83,20,13.87,few clouds
384,Roros,NO,2020-10-15 19:06:20,62.57,11.38,39.2,80,100,16.11,overcast clouds
385,Senanga,ZM,2020-10-15 19:06:20,-16.12,23.27,83.32,35,87,7.11,overcast clouds
386,Ploemeur,FR,2020-10-15 19:06:21,47.73,-3.43,52.0,76,48,4.7,scattered clouds
387,Mitsamiouli,KM,2020-10-15 19:06:21,-11.38,43.28,78.89,74,6,2.89,clear sky
388,Port Lincoln,AU,2020-10-15 19:06:21,-34.73,135.87,57.06,87,100,16.6,light rain
389,Saint-Joseph,RE,2020-10-15 19:02:36,-21.37,55.62,73.4,69,1,8.05,clear sky
390,Srednekolymsk,RU,2020-10-15 19:06:21,67.45,153.68,30.4,99,100,9.35,overcast clouds
391,Morondava,MG,2020-10-15 19:06:21,-20.28,44.28,78.98,74,74,6.38,broken clouds
392,Srivardhan,IN,2020-10-15 19:06:22,18.03,73.02,77.2,92,89,5.64,overcast clouds
393,Gat,IL,2020-10-15 19:06:22,31.61,34.76,78.01,69,1,5.57,clear sky
394,Doka,SD,2020-10-15 19:06:22,13.52,35.77,80.87,47,1,3.24,clear sky
395,Tiarei,PF,2020-10-15 19:06:22,-17.53,-149.33,82.4,69,40,9.17,shower rain
396,Parabel,RU,2020-10-15 19:06:22,58.7,81.48,30.61,95,0,5.75,clear sky
397,Kalianget,ID,2020-10-15 19:06:22,-7.05,113.93,82.83,71,100,7.23,light rain
398,Ventanas,EC,2020-10-15 19:06:22,-1.45,-79.47,92.73,43,65,1.45,broken clouds
399,Ulagan,RU,2020-10-15 19:06:22,50.63,87.96,32.76,82,99,2.3,overcast clouds
400,Gigmoto,PH,2020-10-15 19:02:06,13.78,124.39,79.7,80,100,4.68,overcast clouds
401,Ko Samui,TH,2020-10-15 19:06:23,9.54,99.94,81.84,78,41,17.07,scattered clouds
402,Ambilobe,MG,2020-10-15 19:06:23,-13.2,49.05,74.32,75,3,5.14,clear sky
403,Margate,GB,2020-10-15 19:06:23,51.38,1.39,52.0,81,97,1.99,moderate rain
404,Biltine,TD,2020-10-15 19:06:23,14.53,20.92,90.63,12,0,9.75,clear sky
405,Kambove,CD,2020-10-15 19:06:23,-10.88,26.6,66.16,83,4,11.63,moderate rain
406,Aksha,RU,2020-10-15 19:06:23,50.28,113.29,27.91,93,0,5.08,clear sky
407,Nhulunbuy,AU,2020-10-15 19:06:23,-12.23,136.77,73.4,88,1,7.4,clear sky
408,Blytheville,US,2020-10-15 19:02:04,35.93,-89.92,62.01,72,90,6.93,overcast clouds
409,Gorele,TR,2020-10-15 19:06:24,41.03,39.0,69.8,88,75,2.35,broken clouds
410,Capao Da Canoa,BR,2020-10-15 19:06:24,-29.75,-50.01,67.8,76,89,6.91,overcast clouds
411,Agirish,RU,2020-10-15 19:06:24,61.92,63.02,32.61,92,100,9.1,overcast clouds
412,Pacific Grove,US,2020-10-15 19:02:20,36.62,-121.92,84.2,20,1,5.82,clear sky
413,Suruc,TR,2020-10-15 19:06:24,36.98,38.42,73.4,25,0,4.7,clear sky
414,Tahta,EG,2020-10-15 19:06:24,26.77,31.5,91.4,24,0,6.93,clear sky
415,Savonlinna,FI,2020-10-15 19:06:25,61.87,28.88,35.6,93,75,9.17,broken clouds
416,Baykit,RU,2020-10-15 19:06:25,61.67,96.37,24.75,91,97,9.37,overcast clouds
417,Poco Verde,BR,2020-10-15 19:06:25,-10.71,-38.18,88.99,36,0,13.71,clear sky
418,Tera,NE,2020-10-15 19:06:25,14.01,0.75,94.75,24,45,4.36,scattered clouds
419,Nishihara,JP,2020-10-15 19:06:25,26.18,127.76,77.0,94,40,4.7,scattered clouds
420,Isagarh,IN,2020-10-15 19:06:25,24.83,77.88,77.23,62,0,5.68,clear sky
421,Danielskuil,ZA,2020-10-15 19:06:25,-28.19,23.54,70.63,21,0,7.76,clear sky
422,Maragogi,BR,2020-10-15 19:06:26,-9.01,-35.22,79.36,71,61,10.51,broken clouds
423,Grand Island,US,2020-10-15 19:04:02,40.92,-98.34,53.6,27,1,19.46,clear sky
424,Kushima,JP,2020-10-15 19:06:26,31.46,131.23,59.0,82,0,6.55,clear sky
425,Talcahuano,CL,2020-10-15 19:06:26,-36.72,-73.12,64.4,59,0,11.41,clear sky
426,Ossora,RU,2020-10-15 19:06:26,59.24,163.07,38.75,75,100,16.46,overcast clouds
427,Avera,US,2020-10-15 19:06:26,33.19,-82.53,80.6,78,40,4.7,scattered clouds
428,Cape Coast,GH,2020-10-15 19:06:26,5.11,-1.25,77.58,86,44,10.42,scattered clouds
429,Bairiki,KI,2020-10-15 19:06:21,1.33,172.98,80.6,78,20,6.93,few clouds
430,Grand-Santi,GF,2020-10-15 19:06:27,4.25,-54.38,97.52,24,100,4.38,overcast clouds
431,Ampanihy,MG,2020-10-15 19:06:27,-24.7,44.75,64.02,86,47,9.66,scattered clouds
432,Navashino,RU,2020-10-15 19:06:27,55.53,42.2,52.0,64,0,11.99,clear sky
433,Antalaha,MG,2020-10-15 19:06:27,-14.9,50.28,71.6,84,2,6.33,clear sky
434,Wapi Pathum,TH,2020-10-15 19:06:27,15.85,103.38,75.9,91,96,6.67,light rain
435,Oussouye,SN,2020-10-15 19:06:27,12.48,-16.55,87.8,74,40,4.7,scattered clouds
436,Esna,EG,2020-10-15 19:02:47,25.29,32.55,89.6,33,0,3.36,clear sky
437,High Level,CA,2020-10-15 19:06:28,58.52,-117.14,23.0,57,20,9.17,few clouds
438,Nome,US,2020-10-15 19:04:03,64.5,-165.41,37.4,86,90,16.11,light rain
439,Billings,US,2020-10-15 19:04:44,45.78,-108.5,50.0,29,40,20.8,scattered clouds
440,Yanam,IN,2020-10-15 19:06:28,16.73,82.22,76.68,90,100,1.79,light rain
441,Alugan,PH,2020-10-15 19:06:28,12.22,125.48,76.73,92,99,3.89,overcast clouds
442,San Cristobal,VE,2020-10-15 19:06:28,7.77,-72.22,91.4,49,40,10.29,scattered clouds
443,Lesogorsk,RU,2020-10-15 19:06:28,56.05,99.51,42.37,87,100,14.61,light rain
444,Padang,ID,2020-10-15 19:06:29,-0.95,100.35,78.35,72,100,3.47,moderate rain
445,Yeppoon,AU,2020-10-15 19:06:29,-23.13,150.73,64.4,77,8,6.93,clear sky
446,Korhogo,CI,2020-10-15 19:06:29,9.45,-5.63,76.98,81,49,1.92,light rain
447,Vila Velha,BR,2020-10-15 19:06:29,-20.33,-40.29,78.01,78,90,17.22,light rain
448,Lorengau,PG,2020-10-15 19:06:29,-2.02,147.27,80.64,71,31,2.13,scattered clouds
449,Asfi,MA,2020-10-15 19:06:29,32.3,-9.24,65.12,73,100,17.27,overcast clouds
450,Narsaq,GL,2020-10-15 19:06:29,60.92,-46.05,39.2,55,75,3.36,broken clouds
451,Chuy,UY,2020-10-15 19:06:29,-33.7,-53.46,67.24,72,0,8.97,clear sky
452,Pio Ix,BR,2020-10-15 19:06:29,-6.84,-40.58,96.8,17,100,8.55,overcast clouds
453,Vanimo,PG,2020-10-15 19:06:30,-2.67,141.3,78.1,84,100,5.46,light rain
454,Chumikan,RU,2020-10-15 19:06:30,54.72,135.31,30.96,87,95,16.53,overcast clouds
455,Tucuman,AR,2020-10-15 19:02:08,-26.82,-65.22,78.8,39,75,6.93,broken clouds
456,Garmsar,IR,2020-10-15 19:06:30,35.22,52.34,60.21,31,0,3.51,clear sky
457,Naze,JP,2020-10-15 19:06:30,28.37,129.48,75.2,73,15,4.7,few clouds
458,Paita,PE,2020-10-15 19:06:30,-5.09,-81.11,75.2,69,30,11.41,scattered clouds
459,San Policarpo,PH,2020-10-15 19:06:30,12.18,125.51,77.22,91,99,4.03,overcast clouds
460,Dalvik,IS,2020-10-15 19:06:30,65.97,-18.53,35.6,80,0,2.24,clear sky
461,Piskivka,UA,2020-10-15 19:06:31,50.69,29.62,57.0,62,100,4.47,overcast clouds
462,Brookhaven,US,2020-10-15 19:06:31,31.58,-90.44,81.0,65,75,5.82,broken clouds
463,Tabory,RU,2020-10-15 19:06:31,58.52,64.55,39.43,75,100,10.16,overcast clouds
464,Puerto Asis,CO,2020-10-15 19:06:31,0.51,-76.5,78.8,78,75,5.82,broken clouds
465,Villeneuve-Sur-Lot,FR,2020-10-15 19:06:31,44.5,0.67,48.2,76,14,5.82,few clouds
466,Ayr,GB,2020-10-15 19:06:31,55.46,-4.63,48.2,76,40,3.36,scattered clouds
467,Leningradskiy,RU,2020-10-15 19:02:07,69.38,178.42,33.89,88,100,10.96,overcast clouds
468,Tamandare,BR,2020-10-15 19:06:31,-8.76,-35.1,79.61,70,45,10.4,scattered clouds
469,Ejido Hermosillo,MX,2020-10-15 19:06:32,32.51,-114.92,95.0,42,1,3.36,clear sky
470,Tutoia,BR,2020-10-15 19:06:32,-2.76,-42.27,84.15,69,7,17.36,clear sky
471,Hondo,JP,2020-10-15 19:06:32,32.45,130.2,66.0,59,93,15.01,overcast clouds
472,Santa Cruz,BO,2020-10-15 19:05:46,-17.8,-63.17,89.6,40,75,18.34,smoke
473,Terney,RU,2020-10-15 19:06:32,45.05,136.61,37.78,73,0,7.94,clear sky
474,Dubai,AE,2020-10-15 19:06:32,25.26,55.3,84.2,39,0,4.7,clear sky
475,Khorixas,NA,2020-10-15 19:06:32,-20.37,14.97,65.84,61,51,5.48,broken clouds
476,Clarence Town,AU,2020-10-15 19:06:32,-32.58,151.78,63.0,72,6,5.82,clear sky
477,Aksu,CN,2020-10-15 19:06:33,41.12,80.26,52.81,39,85,5.14,overcast clouds
478,Flin Flon,CA,2020-10-15 19:06:33,54.77,-101.86,26.6,49,90,14.99,light snow
479,Plettenberg Bay,ZA,2020-10-15 19:06:33,-34.05,23.37,58.91,87,31,3.85,scattered clouds
480,Richards Bay,ZA,2020-10-15 19:06:33,-28.78,32.04,73.74,64,0,9.37,clear sky
481,Oruro,BO,2020-10-15 19:06:33,-17.98,-67.15,62.6,33,40,13.87,scattered clouds
482,Pisco,PE,2020-10-15 19:04:30,-13.7,-76.22,68.0,72,3,8.05,clear sky
483,Benin,BJ,2020-10-15 19:02:49,9.5,2.25,79.65,71,0,2.91,clear sky
484,Hualmay,PE,2020-10-15 19:06:34,-11.1,-77.61,68.45,66,6,9.08,clear sky
485,Sabzevar,IR,2020-10-15 19:06:34,36.21,57.68,51.44,38,0,9.42,clear sky
486,Krasnoselkup,RU,2020-10-15 19:06:34,65.7,82.47,29.28,97,100,14.61,overcast clouds
487,Guaruja,BR,2020-10-15 19:05:01,-23.99,-46.26,75.0,26,100,8.19,light rain
488,Tulun,RU,2020-10-15 19:06:34,54.56,100.58,39.72,71,100,6.04,overcast clouds
489,Pilibanga,IN,2020-10-15 19:06:34,29.49,74.08,74.19,20,0,3.78,clear sky
490,Mbala,ZM,2020-10-15 19:06:34,-8.84,31.37,66.4,74,18,7.81,few clouds
491,Shache,CN,2020-10-15 19:06:34,38.42,77.24,46.29,49,82,4.99,broken clouds
492,Cayenne,GF,2020-10-15 19:06:34,4.93,-52.33,91.4,55,0,11.41,clear sky
493,Saint Paul,US,2020-10-15 19:05:56,44.94,-93.09,48.99,36,1,18.34,clear sky
494,Treinta Y Tres,UY,2020-10-15 19:05:39,-33.23,-54.38,73.49,62,0,7.81,clear sky
495,Begoro,GH,2020-10-15 19:06:35,6.39,-0.38,71.89,98,100,3.44,overcast clouds
496,Opuwo,NA,2020-10-15 19:06:35,-18.06,13.84,75.76,29,10,0.31,clear sky
497,Sabang,ID,2020-10-15 19:06:35,5.89,95.32,82.62,78,100,20.45,overcast clouds
498,Homer,US,2020-10-15 19:06:07,59.64,-151.55,42.01,93,1,4.0,clear sky
499,Port Augusta,AU,2020-10-15 19:06:35,-32.5,137.77,75.0,82,90,6.93,light rain
500,Kamenka,RU,2020-10-15 19:06:35,51.32,42.77,55.99,67,0,6.24,clear sky
501,Revda,RU,2020-10-15 19:06:35,56.8,59.93,41.0,93,100,2.24,overcast clouds
502,Hendersonville,US,2020-10-15 19:06:27,36.3,-86.62,75.0,53,1,6.93,clear sky
503,Seoul,KR,2020-10-15 19:06:35,37.57,126.98,46.4,75,1,1.61,clear sky
504,Iralaya,HN,2020-10-15 19:06:36,15.0,-83.23,84.11,77,25,7.49,moderate rain
505,Kloulklubed,PW,2020-10-15 19:02:00,7.04,134.26,77.0,94,75,8.52,broken clouds
506,La Maddalena,IT,2020-10-15 19:06:36,41.21,9.41,57.2,71,20,6.93,few clouds
507,Bilma,NE,2020-10-15 19:06:36,18.69,12.92,90.46,13,0,6.67,clear sky
508,Jaisalmer,IN,2020-10-15 19:06:36,26.91,70.92,82.98,15,0,8.12,clear sky
509,Kitaibaraki,JP,2020-10-15 19:06:36,36.78,140.75,57.99,57,100,11.27,overcast clouds
510,Barranca,PE,2020-10-15 19:06:36,-10.75,-77.77,67.73,67,11,9.26,few clouds
511,Tumpat,MY,2020-10-15 19:06:37,6.2,102.17,75.2,100,40,3.71,scattered clouds
512,Muisne,EC,2020-10-15 19:06:37,0.6,-80.03,86.0,74,40,9.17,scattered clouds
513,Arvika,SE,2020-10-15 19:06:37,59.66,12.59,44.6,81,0,5.82,clear sky
514,Lavrentiya,RU,2020-10-15 19:02:25,65.58,-171.0,37.92,93,100,14.12,overcast clouds
515,Monterey,US,2020-10-15 19:06:37,36.25,-121.25,84.2,36,1,3.36,clear sky
516,Henties Bay,NA,2020-10-15 19:06:37,-22.12,14.28,59.0,91,52,1.72,broken clouds
517,Lumphat,KH,2020-10-15 19:06:37,13.49,106.98,73.44,98,99,2.15,light rain
518,Asau,RO,2020-10-15 19:02:01,46.43,26.4,48.99,98,0,4.03,clear sky
519,Abu Dhabi,AE,2020-10-15 19:05:48,24.47,54.37,84.2,58,0,5.82,clear sky
520,Semypolky,UA,2020-10-15 19:06:37,50.72,30.93,59.0,66,50,6.71,light rain
521,College,US,2020-10-15 19:06:38,64.86,-147.8,19.4,73,90,1.7,light snow
522,San Pedro,PH,2020-10-15 19:06:38,14.35,121.02,78.8,94,20,3.36,few clouds
523,Carutapera,BR,2020-10-15 19:06:38,-1.2,-46.02,85.69,63,100,11.61,overcast clouds
524,Medicine Hat,CA,2020-10-15 19:06:38,50.05,-110.67,37.4,86,75,13.87,shower rain
525,Khilok,RU,2020-10-15 19:06:38,51.37,110.47,28.8,91,100,4.32,overcast clouds
526,Kuching,MY,2020-10-15 19:06:38,1.55,110.33,77.0,94,40,2.24,scattered clouds
527,Aksarka,RU,2020-10-15 19:02:37,66.56,67.8,29.93,94,99,12.03,overcast clouds
528,North Platte,US,2020-10-15 19:06:38,41.12,-100.77,53.6,37,75,18.34,broken clouds
529,Houston,US,2020-10-15 19:04:05,29.76,-95.36,89.01,58,20,6.17,few clouds
530,Prince Rupert,CA,2020-10-15 19:06:39,54.32,-130.32,44.6,87,90,5.82,light rain
531,Kungurtug,RU,2020-10-15 19:02:56,50.6,97.52,29.48,87,92,1.88,overcast clouds
532,Inhambane,MZ,2020-10-15 19:06:39,-23.86,35.38,69.8,77,0,4.7,clear sky
533,Cukai,MY,2020-10-15 19:06:39,4.25,103.42,78.8,94,100,5.86,overcast clouds
534,Haines Junction,CA,2020-10-15 19:06:39,60.75,-137.51,36.54,78,92,2.3,overcast clouds
535,Aksarayskiy,RU,2020-10-15 19:06:39,46.79,48.01,50.0,81,100,6.71,overcast clouds
536,Ahipara,NZ,2020-10-15 19:06:39,-35.17,173.17,52.05,80,1,5.66,clear sky
537,Taksimo,RU,2020-10-15 19:06:40,56.34,114.88,28.27,90,100,1.32,overcast clouds
538,Yumen,CN,2020-10-15 19:06:40,40.28,97.2,34.27,72,0,6.85,clear sky
539,Ferkessedougou,CI,2020-10-15 19:06:40,9.6,-5.2,77.31,84,94,4.43,moderate rain
540,Koumac,NC,2020-10-15 19:06:40,-20.57,164.28,73.02,81,100,8.12,moderate rain
541,Molteno,ZA,2020-10-15 19:06:40,-31.4,26.36,61.45,33,0,6.11,clear sky
542,Alamos,MX,2020-10-15 19:06:40,27.02,-108.93,99.0,30,79,13.0,broken clouds
543,Assiniboia,CA,2020-10-15 19:06:40,49.63,-105.98,39.07,67,100,22.15,overcast clouds
544,Ler,SS,2020-10-15 19:06:40,8.3,30.14,76.8,78,0,3.04,light rain
545,Bulgan,MN,2020-10-15 19:06:40,48.81,103.53,32.56,79,15,7.0,few clouds
546,Powell River,CA,2020-10-15 19:06:40,49.85,-124.54,50.0,93,90,8.05,overcast clouds
547,Marsh Harbour,BS,2020-10-15 19:06:41,26.54,-77.06,82.0,76,100,16.49,moderate rain
548,Praia,CV,2020-10-15 19:06:41,14.92,-23.51,84.2,79,15,11.41,few clouds
549,Harper,LR,2020-10-15 19:06:41,4.38,-7.72,77.95,87,98,8.61,light rain
550,Jalu,LY,2020-10-15 19:06:41,29.03,21.55,83.28,23,0,10.0,clear sky
551,Kyzyl-Suu,KG,2020-10-15 19:06:41,42.34,78.01,44.47,55,0,7.58,clear sky
552,Listvyagi,RU,2020-10-15 19:06:41,53.68,86.95,45.59,73,100,11.61,light rain
553,Bandarbeyla,SO,2020-10-15 19:06:41,9.49,50.81,80.22,84,0,12.48,clear sky
554,Kaeo,NZ,2020-10-15 19:06:41,-35.1,173.78,51.01,90,31,8.01,scattered clouds
555,Kjopsvik,NO,2020-10-15 19:06:42,68.1,16.37,42.01,100,75,9.17,broken clouds
556,Aden,YE,2020-10-15 19:04:54,12.78,45.04,85.78,62,0,2.73,clear sky
557,Northam,GB,2020-10-15 19:06:42,51.03,-4.22,46.0,79,2,1.01,clear sky
558,Alma,CA,2020-10-15 19:06:42,48.55,-71.65,55.4,66,90,17.22,overcast clouds
559,Solnechnyy,RU,2020-10-15 19:06:42,50.72,136.63,28.08,83,100,4.52,overcast clouds
560,Huarmey,PE,2020-10-15 19:03:20,-10.07,-78.15,68.86,66,20,7.94,few clouds
561,Moron,AR,2020-10-15 19:06:42,-34.65,-58.62,75.2,53,59,5.82,broken clouds
562,Arkhangelsk,RU,2020-10-15 19:06:28,64.54,40.54,33.8,100,90,1.86,light intensity shower rain
563,Kishi,NG,2020-10-15 19:06:42,9.08,3.85,76.8,82,27,1.77,moderate rain
564,Karasjok,NO,2020-10-15 19:06:42,69.47,25.51,39.2,80,75,33.33,shower rain
565,Songea,TZ,2020-10-15 19:02:10,-10.68,35.65,69.35,55,0,3.83,clear sky
566,Velyka Oleksandrivka,UA,2020-10-15 19:06:43,47.32,33.3,61.68,56,100,4.18,overcast clouds
567,Bulungu,CD,2020-10-15 19:06:43,-4.55,18.6,72.82,92,94,2.01,moderate rain
568,Atherton,GB,2020-10-15 19:06:43,53.52,-2.49,50.0,70,19,1.01,few clouds
569,Saint-Augustin,CA,2020-10-15 19:06:43,51.23,-58.65,53.4,73,68,9.91,broken clouds
570,Labuan,MY,2020-10-15 19:06:43,5.28,115.24,80.6,78,20,4.7,thunderstorm
571,Xihe,CN,2020-10-15 19:06:44,31.69,113.47,55.96,92,100,9.82,light rain
572,Santa Isabel Do Rio Negro,BR,2020-10-15 19:06:44,-0.41,-65.02,89.29,55,92,1.77,overcast clouds
573,Roebourne,AU,2020-10-15 19:06:44,-20.78,117.13,76.69,36,0,9.6,clear sky
574,Laredo,US,2020-10-15 19:04:53,27.51,-99.51,93.2,49,1,6.93,clear sky
575,Kifri,IQ,2020-10-15 19:06:44,34.7,44.97,76.57,18,90,9.31,overcast clouds
576,Batagay-Alyta,RU,2020-10-15 19:06:44,67.8,130.41,12.83,96,94,2.86,overcast clouds
577,Presidencia Roque Saenz Pena,AR,2020-10-15 19:06:44,-26.79,-60.44,82.87,45,93,7.02,overcast clouds
578,Labuhan,ID,2020-10-15 19:03:03,-6.88,112.21,80.37,75,100,9.08,light rain
579,Waddan,LY,2020-10-15 19:06:44,29.16,16.14,82.2,18,47,6.53,scattered clouds
580,Piet Retief,ZA,2020-10-15 19:06:44,-27.01,30.81,62.94,73,0,2.17,clear sky
581,Fuerte,PH,2020-10-15 19:06:45,17.54,120.36,79.88,79,8,2.71,clear sky
582,Zweibrucken,DE,2020-10-15 19:06:45,49.25,7.37,48.0,93,75,8.05,broken clouds
583,Abalak,RU,2020-10-15 19:06:45,58.13,68.59,32.4,95,1,6.58,clear sky
584,Valdosta,US,2020-10-15 19:06:45,30.83,-83.28,86.0,55,75,5.82,broken clouds
585,Port Blair,IN,2020-10-15 19:06:45,11.67,92.75,80.47,83,100,10.29,overcast clouds
586,Suchdol Nad Luznici,CZ,2020-10-15 19:06:45,48.89,14.88,46.99,89,100,4.72,overcast clouds
587,Chistogorskiy,RU,2020-10-15 19:06:45,53.98,87.38,44.82,78,100,6.76,light rain
588,Port Pirie,AU,2020-10-15 19:06:46,-33.18,138.02,62.6,82,90,6.93,overcast clouds
589,Freeport,US,2020-10-15 19:06:14,40.66,-73.58,70.0,68,1,20.8,clear sky
590,Mitchell,US,2020-10-15 19:06:46,43.71,-98.03,51.8,25,1,17.22,clear sky
591,Bolu,TR,2020-10-15 19:04:20,40.67,31.58,57.81,55,0,2.82,clear sky
592,Rincon,US,2020-10-15 19:06:46,32.3,-81.24,87.8,52,75,8.05,broken clouds
593,Jos,NG,2020-10-15 19:06:46,9.92,8.9,70.59,69,32,0.76,scattered clouds
594,San Felipe,VE,2020-10-15 19:06:46,10.34,-68.74,89.85,51,70,1.66,light rain
595,Lata,PT,2020-10-15 19:06:47,40.16,-8.33,57.99,79,31,4.0,scattered clouds
596,Smithers,CA,2020-10-15 19:02:49,54.78,-127.17,33.8,73,90,6.93,overcast clouds
597,Constitucion,CL,2020-10-15 19:02:52,-35.33,-72.42,64.24,62,0,11.27,clear sky
598,Wajid,SO,2020-10-15 19:06:47,3.81,43.25,78.06,68,0,18.03,clear sky
599,Scarborough,GB,2020-10-15 19:06:47,54.28,-0.4,50.0,78,97,5.01,overcast clouds
600,Mikumi,TZ,2020-10-15 19:06:47,-7.4,36.98,73.85,74,56,3.2,broken clouds
601,Chunskiy,RU,2020-10-15 19:06:47,56.08,99.63,41.99,88,100,14.29,light rain
602,Anshun,CN,2020-10-15 19:06:47,26.25,105.93,54.25,95,100,5.82,light rain
603,Ilabaya,PE,2020-10-15 19:06:47,-17.42,-70.51,73.22,40,98,8.46,light rain
604,Sept-Iles,CA,2020-10-15 19:04:50,50.2,-66.38,48.0,81,75,6.93,broken clouds
605,Dingle,PH,2020-10-15 19:03:30,11.0,122.67,74.08,94,100,1.5,overcast clouds
606,Whitman,US,2020-10-15 19:06:48,46.92,-117.48,48.99,66,47,1.99,scattered clouds
607,Alofi,NU,2020-10-15 19:06:48,-19.06,-169.92,71.6,83,60,4.7,broken clouds
608,Omsukchan,RU,2020-10-15 19:06:48,62.53,155.8,26.65,96,100,5.57,light snow
609,Swift Current,CA,2020-10-15 19:05:02,50.28,-107.8,35.6,64,90,23.04,overcast clouds
610,Polis,CY,2020-10-15 19:06:48,35.04,32.43,69.8,73,20,5.82,few clouds
611,Villaviciosa,ES,2020-10-15 19:06:48,43.48,-5.44,55.0,74,11,2.66,light rain
612,Susehri,TR,2020-10-15 19:06:49,40.16,38.09,60.51,52,0,1.99,clear sky
613,Erzin,TR,2020-10-15 19:06:49,36.96,36.2,75.99,78,70,2.95,broken clouds
614,Acapulco,MX,2020-10-15 19:06:49,16.86,-99.89,87.8,70,5,6.93,clear sky
615,Evensk,RU,2020-10-15 19:06:49,61.95,159.23,35.64,96,100,2.66,overcast clouds
616,Hamilton,US,2020-10-15 19:01:55,39.18,-84.53,54.0,81,90,10.29,moderate rain
617,San Lorenzo,PY,2020-10-15 19:06:49,-25.33,-57.53,78.8,69,75,4.7,broken clouds
618,Sioux Lookout,CA,2020-10-15 19:06:49,50.1,-91.92,35.6,51,75,11.41,broken clouds
619,San Antonio,US,2020-10-15 19:04:53,29.42,-98.49,84.2,69,75,5.26,broken clouds
620,Belaya Gora,RU,2020-10-15 19:06:49,68.53,146.42,22.82,98,100,10.2,light snow
621,Lasa,IT,2020-10-15 19:06:49,46.62,10.7,48.0,70,75,9.17,mist
622,Paredon,MX,2020-10-15 19:06:49,16.03,-93.87,86.52,65,76,6.29,broken clouds
623,Iquitos,PE,2020-10-15 19:06:50,-3.75,-73.25,82.4,78,40,3.36,scattered clouds
624,Tula,RU,2020-10-15 19:04:09,54.2,37.61,51.64,60,100,10.85,light rain
625,Derzhavinsk,KZ,2020-10-15 19:06:50,51.1,66.32,50.97,42,0,8.7,clear sky
626,Bestobe,KZ,2020-10-15 19:06:50,52.5,73.1,45.88,57,2,5.73,clear sky
627,Nemours,FR,2020-10-15 19:06:50,48.28,2.69,51.01,76,90,9.17,overcast clouds
628,Moerai,PF,2020-10-15 19:06:50,-22.43,-151.33,72.3,85,90,17.72,overcast clouds
629,Tilichiki,RU,2020-10-15 19:01:56,60.47,166.1,38.98,96,99,4.25,overcast clouds
630,Porto Murtinho,BR,2020-10-15 19:06:50,-21.7,-57.88,79.92,76,99,4.61,light rain
631,Zhigansk,RU,2020-10-15 19:06:50,66.77,123.37,17.85,96,99,14.72,overcast clouds
632,Oktyabrskoye,RU,2020-10-15 19:06:51,43.06,44.74,50.0,81,0,6.71,clear sky
633,Rathenow,DE,2020-10-15 19:06:51,52.61,12.34,50.0,82,100,1.99,overcast clouds
634,Joshimath,IN,2020-10-15 19:06:51,30.57,79.57,54.39,36,0,2.28,clear sky
635,Yarmouth,US,2020-10-15 19:01:52,41.71,-70.23,69.01,77,1,14.99,clear sky
636,Galveston,US,2020-10-15 19:05:51,29.37,-94.97,87.01,66,20,14.99,few clouds
637,Parker,US,2020-10-15 19:06:52,32.77,-97.8,72.0,41,99,14.0,overcast clouds
638,Neepawa,CA,2020-10-15 19:06:52,50.23,-99.47,39.2,35,75,28.86,broken clouds
639,Wawa,NG,2020-10-15 19:06:52,9.9,4.42,80.35,71,4,1.23,light rain
640,Bosaso,SO,2020-10-15 19:06:52,11.28,49.18,84.16,52,0,8.14,clear sky
641,Maniitsoq,GL,2020-10-15 19:06:53,65.42,-52.9,39.54,78,100,19.37,overcast clouds
642,Baraboo,US,2020-10-15 19:06:53,43.47,-89.74,48.2,33,1,11.41,clear sky
643,Maine-Soroa,NE,2020-10-15 19:06:53,13.21,12.02,94.73,18,1,11.23,clear sky
644,Rio Branco,BR,2020-10-15 19:06:53,-9.97,-67.81,71.6,100,75,3.36,broken clouds
645,Tucuma,BR,2020-10-15 19:06:53,-0.18,-50.05,85.62,65,44,9.37,light rain
646,Ngunguru,NZ,2020-10-15 19:02:32,-35.62,174.5,50.0,90,99,5.01,light rain
647,Paveh,IR,2020-10-15 19:06:54,35.04,46.36,49.08,47,0,3.24,clear sky
648,Saint Marys,US,2020-10-15 19:06:54,30.73,-81.55,84.2,70,1,8.05,clear sky
649,Nan,TH,2020-10-15 19:06:54,18.83,100.67,70.07,96,99,2.44,overcast clouds
650,Luanda,AO,2020-10-15 19:05:44,-8.84,13.23,77.0,83,75,8.05,broken clouds
651,Avanigadda,IN,2020-10-15 19:06:54,16.02,80.92,76.87,91,99,2.62,light rain
652,Lotofaga,WS,2020-10-15 19:06:54,-13.98,-171.86,77.0,94,75,8.05,broken clouds
653,Sumkino,RU,2020-10-15 19:06:54,58.11,68.32,33.42,92,26,7.23,scattered clouds
654,Tazovskiy,RU,2020-10-15 19:06:55,67.47,78.7,31.19,93,91,15.82,overcast clouds
655,Iwanai,JP,2020-10-15 19:06:55,42.97,140.51,44.6,74,99,6.17,light rain
656,Espanola,US,2020-10-15 19:06:55,35.99,-106.08,64.99,30,1,11.41,clear sky
657,Mega,ET,2020-10-15 19:06:55,4.05,38.3,64.51,73,12,3.76,few clouds
658,Loandjili,CG,2020-10-15 19:06:55,-4.76,11.86,78.8,78,75,6.93,broken clouds
659,Copiapo,CL,2020-10-15 19:06:55,-27.37,-70.33,62.6,63,75,6.93,broken clouds
660,Watertown,US,2020-10-15 19:06:56,42.37,-71.18,73.99,43,40,20.8,scattered clouds
661,Cabedelo,BR,2020-10-15 19:06:31,-6.98,-34.83,84.2,62,40,13.87,scattered clouds
662,Kamina,CD,2020-10-15 19:06:56,-8.74,24.99,71.62,70,0,2.13,clear sky
663,Isilkul,RU,2020-10-15 19:06:56,54.91,71.27,43.14,82,99,3.74,overcast clouds
664,Zepce,BA,2020-10-15 19:06:56,44.43,18.04,53.6,93,0,5.82,clear sky
665,Tunoshna,RU,2020-10-15 19:06:56,57.55,40.13,44.6,93,90,8.95,light intensity shower rain
666,Ormara,PK,2020-10-15 19:06:57,25.21,64.64,84.07,37,0,8.01,clear sky
667,Bodaybo,RU,2020-10-15 19:06:57,57.85,114.19,31.12,93,100,4.52,overcast clouds
668,Razdolnoye,RU,2020-10-15 19:06:57,43.55,131.92,28.4,100,0,2.24,clear sky
669,Sola,VU,2020-10-15 19:06:57,-13.88,167.55,80.6,78,75,21.25,broken clouds
670,Nizhnyaya Salda,RU,2020-10-15 19:06:57,58.08,60.72,43.93,84,100,10.4,overcast clouds
671,Santiago,CL,2020-10-15 19:04:26,-33.46,-70.65,86.0,30,1,11.41,clear sky
672,Kabalo,CD,2020-10-15 19:06:57,-6.05,26.92,75.83,70,0,2.19,clear sky
673,Dostpur,IN,2020-10-15 19:06:57,26.28,82.47,80.15,65,0,2.51,clear sky
674,Atasu,KZ,2020-10-15 19:06:57,48.68,71.64,49.15,50,71,3.96,broken clouds
675,Charters Towers,AU,2020-10-15 19:06:58,-20.1,146.27,61.21,89,0,6.87,clear sky
676,Seymour,US,2020-10-15 19:06:58,38.96,-85.89,54.0,92,100,1.99,light rain
677,Timaru,NZ,2020-10-15 19:06:58,-44.4,171.25,37.0,90,0,9.91,clear sky
678,Phonhong,LA,2020-10-15 19:06:58,18.5,102.42,73.04,92,99,2.95,overcast clouds
679,Mantua,IT,2020-10-15 19:06:58,45.17,10.78,51.01,96,100,4.36,overcast clouds
680,Frankfort,ZA,2020-10-15 19:06:58,-27.27,28.48,68.7,30,0,2.01,clear sky
681,Emba,KZ,2020-10-15 19:06:58,48.83,58.14,56.64,37,100,7.61,overcast clouds
682,Katangli,RU,2020-10-15 19:06:58,51.71,143.23,30.2,92,16,10.4,few clouds
683,Coahuayana,MX,2020-10-15 19:06:58,18.73,-103.68,84.2,74,40,11.41,scattered clouds
684,Pangai,TO,2020-10-15 19:06:00,-19.8,-174.35,77.0,73,75,14.99,broken clouds
685,Sayyan,YE,2020-10-15 19:06:59,15.17,44.32,57.85,31,0,5.86,clear sky
686,Bubaque,GW,2020-10-15 19:06:59,11.28,-15.83,82.56,75,17,7.76,few clouds
687,Kuytun,RU,2020-10-15 19:06:59,54.34,101.5,38.95,74,100,5.66,overcast clouds
688,Urucara,BR,2020-10-15 19:06:59,-2.54,-57.76,96.22,37,77,2.35,broken clouds
689,Sambava,MG,2020-10-15 19:06:59,-14.27,50.17,74.5,79,2,10.29,clear sky
690,Abha,SA,2020-10-15 19:06:59,18.22,42.51,68.0,10,0,5.82,clear sky
691,Nuevo Progreso,MX,2020-10-15 19:06:59,23.17,-97.95,91.0,49,28,1.99,scattered clouds
692,Saint-Ambroise,CA,2020-10-15 19:06:59,48.55,-71.33,51.8,71,75,21.92,broken clouds
693,Phan Thiet,VN,2020-10-15 19:07:00,10.93,108.1,76.42,91,100,9.33,moderate rain
694,Olafsvik,IS,2020-10-15 19:07:00,64.89,-23.71,47.5,73,97,9.42,overcast clouds
695,Bolgar,RU,2020-10-15 19:07:00,54.95,49.07,55.4,66,0,8.95,clear sky
696,Raga,SS,2020-10-15 19:07:00,8.46,25.68,73.69,89,96,1.95,moderate rain
697,Qarchi Gak,AF,2020-10-15 19:07:00,37.04,66.79,64.4,47,0,2.24,clear sky
698,Gazojak,TM,2020-10-15 19:07:01,41.19,61.4,56.16,35,0,7.45,clear sky
699,Bereda,ES,2020-10-15 19:07:01,43.27,-7.54,50.0,93,0,1.01,clear sky
700,Chicama,PE,2020-10-15 19:07:01,-7.84,-79.15,66.2,72,40,10.29,scattered clouds
701,Pangkalanbuun,ID,2020-10-15 19:07:01,-2.68,111.62,73.85,94,100,1.48,overcast clouds
702,Chesma,RU,2020-10-15 19:07:01,53.81,60.65,49.75,48,10,10.67,clear sky
703,Sebastian,US,2020-10-15 19:07:01,35.17,-94.27,69.8,35,90,8.05,overcast clouds
704,Kurilsk,RU,2020-10-15 19:07:02,45.23,147.88,46.58,68,99,13.78,light rain
705,Epe,NG,2020-10-15 19:07:02,6.58,3.98,76.95,89,73,6.31,broken clouds
